{
  "annotations": [
    {
      "id": "beijing",
      "label_cn": "北京",
      "label_py": "Běijīng",
      "label_en": "Beijing",
      "lon": 116.4, "lat": 39.9,
      "entry": "geography/topic_beijing",
      "layers": ["sites", "modern"],
      "category": "geography",
      "type": "city"
    },
    {
      "id": "shanghai",
      "label_cn": "上海",
      "label_py": "Shànghǎi",
      "label_en": "Shanghai",
      "lon": 121.47, "lat": 31.23,
      "entry": "geography/topic_shanghai",
      "layers": ["sites", "modern"],
      "category": "geography",
      "type": "city"
    },
    {
      "id": "huanghe",
      "label_cn": "黄河",
      "label_py": "Huánghé",
      "label_en": "Yellow River",
      "lon": 110.0, "lat": 35.5,
      "entry": "geography/topic_huanghe",
      "layers": ["rivers"],
      "category": "geography",
      "type": "river"
    },
    {
      "id": "changjiang",
      "label_cn": "长江",
      "label_py": "Cháng Jiāng",
      "label_en": "Yangtze River",
      "lon": 111.5, "lat": 30.5,
      "entry": "geography/topic_changjiang",
      "layers": ["rivers"],
      "category": "geography",
      "type": "river"
    },
    {
      "id": "xinjiang",
      "label_cn": "新疆",
      "label_py": "Xīnjiāng",
      "label_en": "Xinjiang",
      "lon": 84.5, "lat": 41.5,
      "entry": "geography/topic_xinjiang",
      "layers": ["sites", "modern"],
      "category": "geography",
      "type": "region"
    },
    {
      "id": "xizang",
      "label_cn": "西藏",
      "label_py": "Xīzàng",
      "label_en": "Tibet",
      "lon": 88.0, "lat": 30.5,
      "entry": "geography/topic_xizang",
      "layers": ["sites", "modern"],
      "category": "geography",
      "type": "region"
    },
    {
      "id": "taiwan",
      "label_cn": "台湾",
      "label_py": "Táiwān",
      "label_en": "Taiwan",
      "lon": 121.0, "lat": 23.7,
      "entry": "geography/topic_taiwan",
      "layers": ["sites", "modern"],
      "category": "geography",
      "type": "island"
    },
    {
      "id": "xianggang",
      "label_cn": "香港",
      "label_py": "Xiānggǎng",
      "label_en": "Hong Kong",
      "lon": 114.17, "lat": 22.32,
      "entry": "geography/topic_xianggang",
      "layers": ["sites", "modern"],
      "category": "geography",
      "type": "city"
    },
    {
      "id": "tangchao",
      "label_cn": "唐朝中心",
      "label_py": "Táng Cháo",
      "label_en": "Tang Dynasty Capital (Chang'an)",
      "lon": 108.95, "lat": 34.27,
      "entry": "history/topic_tangchao",
      "layers": ["dynasties"],
      "category": "history",
      "type": "dynasty-capital"
    },
    {
      "id": "hanchao",
      "label_cn": "汉朝中心",
      "label_py": "Hàn Cháo",
      "label_en": "Han Dynasty Capital (Chang'an)",
      "lon": 108.93, "lat": 34.34,
      "entry": "history/topic_hanchao",
      "layers": ["dynasties"],
      "category": "history",
      "type": "dynasty-capital"
    },
    {
      "id": "mingchao",
      "label_cn": "明朝",
      "label_py": "Míng Cháo",
      "label_en": "Ming Dynasty (Nanjing / Beijing)",
      "lon": 118.78, "lat": 32.06,
      "entry": "history/topic_mingchao",
      "layers": ["dynasties"],
      "category": "history",
      "type": "dynasty-capital"
    },
    {
      "id": "songchao",
      "label_cn": "宋朝",
      "label_py": "Sòng Cháo",
      "label_en": "Song Dynasty (Hangzhou)",
      "lon": 120.16, "lat": 30.27,
      "entry": "history/topic_songchao",
      "layers": ["dynasties"],
      "category": "history",
      "type": "dynasty-capital"
    },
    {
      "id": "qingchao",
      "label_cn": "清朝",
      "label_py": "Qīng Cháo",
      "label_en": "Qing Dynasty (Beijing)",
      "lon": 116.4, "lat": 39.9,
      "entry": "history/topic_qingchao",
      "layers": ["dynasties"],
      "category": "history",
      "type": "dynasty-capital"
    },
    {
      "id": "yuanchao",
      "label_cn": "元朝",
      "label_py": "Yuán Cháo",
      "label_en": "Yuan Dynasty (Khanbaliq)",
      "lon": 116.4, "lat": 39.93,
      "entry": "history/topic_yuanchao",
      "layers": ["dynasties"],
      "category": "history",
      "type": "dynasty-capital"
    },
    {
      "id": "fangyan_yue",
      "label_cn": "粤语区",
      "label_py": "Yuèyǔ",
      "label_en": "Cantonese-speaking region",
      "lon": 113.27, "lat": 23.13,
      "entry": "geography/topic_fangyan",
      "layers": ["dialects"],
      "category": "geography",
      "type": "dialect-zone"
    },
    {
      "id": "fangyan_min",
      "label_cn": "闽语区",
      "label_py": "Mǐnyǔ",
      "label_en": "Min dialect region",
      "lon": 119.3, "lat": 26.07,
      "entry": "geography/topic_fangyan",
      "layers": ["dialects"],
      "category": "geography",
      "type": "dialect-zone"
    },
    {
      "id": "fangyan_wu",
      "label_cn": "吴语区",
      "label_py": "Wúyǔ",
      "label_en": "Wu dialect region (Shanghainese)",
      "lon": 120.6, "lat": 31.3,
      "entry": "geography/topic_fangyan",
      "layers": ["dialects"],
      "category": "geography",
      "type": "dialect-zone"
    },
    {
      "id": "tea",
      "label_cn": "茶文化",
      "label_py": "Chá Wénhuà",
      "label_en": "Tea Culture",
      "lon": 117.3, "lat": 27.85,
      "entry": "culture/topic_cha_wenhua",
      "layers": ["sites"],
      "category": "culture",
      "type": "cultural"
    },

    {
      "id": "cuisine_lu",
      "label_cn": "鲁菜",
      "label_py": "Lǔcài",
      "label_en": "Shandong Cuisine",
      "lon": 117.0, "lat": 36.65,
      "entry": "geography/topic_caixi_geography",
      "layers": ["sites"],
      "category": "culinary",
      "type": "cuisine"
    },
    {
      "id": "cuisine_chuan",
      "label_cn": "川菜",
      "label_py": "Chuāncài",
      "label_en": "Sichuan Cuisine",
      "lon": 104.07, "lat": 30.67,
      "entry": "geography/topic_caixi_geography",
      "layers": ["sites"],
      "category": "culinary",
      "type": "cuisine"
    },
    {
      "id": "cuisine_yue",
      "label_cn": "粤菜",
      "label_py": "Yuècài",
      "label_en": "Cantonese Cuisine",
      "lon": 113.27, "lat": 23.13,
      "entry": "geography/topic_caixi_geography",
      "layers": ["sites"],
      "category": "culinary",
      "type": "cuisine"
    },
    {
      "id": "cuisine_min",
      "label_cn": "闽菜",
      "label_py": "Mǐncài",
      "label_en": "Fujian Cuisine",
      "lon": 119.3, "lat": 26.07,
      "entry": "geography/topic_caixi_geography",
      "layers": ["sites"],
      "category": "culinary",
      "type": "cuisine"
    },
    {
      "id": "cuisine_su",
      "label_cn": "苏菜",
      "label_py": "Sūcài",
      "label_en": "Jiangsu Cuisine",
      "lon": 118.78, "lat": 32.06,
      "entry": "geography/topic_caixi_geography",
      "layers": ["sites"],
      "category": "culinary",
      "type": "cuisine"
    },
    {
      "id": "cuisine_zhe",
      "label_cn": "浙菜",
      "label_py": "Zhècài",
      "label_en": "Zhejiang Cuisine",
      "lon": 120.16, "lat": 30.27,
      "entry": "geography/topic_caixi_geography",
      "layers": ["sites"],
      "category": "culinary",
      "type": "cuisine"
    },
    {
      "id": "cuisine_xiang",
      "label_cn": "湘菜",
      "label_py": "Xiāngcài",
      "label_en": "Hunan Cuisine",
      "lon": 112.94, "lat": 28.23,
      "entry": "geography/topic_caixi_geography",
      "layers": ["sites"],
      "category": "culinary",
      "type": "cuisine"
    },
    {
      "id": "cuisine_hui",
      "label_cn": "徽菜",
      "label_py": "Huīcài",
      "label_en": "Anhui Cuisine",
      "lon": 117.28, "lat": 31.86,
      "entry": "geography/topic_caixi_geography",
      "layers": ["sites"],
      "category": "culinary",
      "type": "cuisine"
    },

    {
      "id": "mt_taishan",
      "label_cn": "泰山",
      "label_py": "Tài Shān",
      "label_en": "Tai Shan (East Sacred Mountain)",
      "lon": 117.10, "lat": 36.27,
      "entry": "religion/topic_shengshan",
      "layers": ["sites"],
      "category": "religion",
      "type": "mountain"
    },
    {
      "id": "mt_huashan",
      "label_cn": "华山",
      "label_py": "Huà Shān",
      "label_en": "Hua Shan (West Sacred Mountain)",
      "lon": 110.08, "lat": 34.48,
      "entry": "religion/topic_shengshan",
      "layers": ["sites"],
      "category": "religion",
      "type": "mountain"
    },
    {
      "id": "mt_hengshan_s",
      "label_cn": "南岳衡山",
      "label_py": "Héng Shān (Nán)",
      "label_en": "Heng Shan, South",
      "lon": 112.74, "lat": 27.30,
      "entry": "religion/topic_shengshan",
      "layers": ["sites"],
      "category": "religion",
      "type": "mountain"
    },
    {
      "id": "mt_hengshan_n",
      "label_cn": "北岳恒山",
      "label_py": "Héng Shān (Běi)",
      "label_en": "Heng Shan, North",
      "lon": 113.74, "lat": 39.69,
      "entry": "religion/topic_shengshan",
      "layers": ["sites"],
      "category": "religion",
      "type": "mountain"
    },
    {
      "id": "mt_songshan",
      "label_cn": "嵩山",
      "label_py": "Sōng Shān",
      "label_en": "Song Shan (Center Sacred Mountain)",
      "lon": 113.04, "lat": 34.48,
      "entry": "religion/topic_shengshan",
      "layers": ["sites"],
      "category": "religion",
      "type": "mountain"
    },
    {
      "id": "mt_wutai",
      "label_cn": "五台山",
      "label_py": "Wǔtái Shān",
      "label_en": "Wutai Shan (Manjushri)",
      "lon": 113.59, "lat": 39.04,
      "entry": "religion/topic_shengshan",
      "layers": ["sites"],
      "category": "religion",
      "type": "mountain"
    },
    {
      "id": "mt_putuo",
      "label_cn": "普陀山",
      "label_py": "Pǔtuó Shān",
      "label_en": "Putuo Shan (Guanyin)",
      "lon": 122.39, "lat": 30.00,
      "entry": "religion/topic_shengshan",
      "layers": ["sites"],
      "category": "religion",
      "type": "mountain"
    },
    {
      "id": "mt_emei",
      "label_cn": "峨眉山",
      "label_py": "Éméi Shān",
      "label_en": "Emei Shan (Samantabhadra)",
      "lon": 103.48, "lat": 29.52,
      "entry": "religion/topic_shengshan",
      "layers": ["sites"],
      "category": "religion",
      "type": "mountain"
    },
    {
      "id": "mt_jiuhua",
      "label_cn": "九华山",
      "label_py": "Jiǔhuá Shān",
      "label_en": "Jiuhua Shan (Ksitigarbha)",
      "lon": 117.81, "lat": 30.46,
      "entry": "religion/topic_shengshan",
      "layers": ["sites"],
      "category": "religion",
      "type": "mountain"
    },

    {
      "id": "phil_qufu",
      "label_cn": "曲阜",
      "label_py": "Qūfù",
      "label_en": "Qufu (Confucius)",
      "lon": 116.99, "lat": 35.59,
      "entry": "philosophy/topic_kongzi",
      "layers": ["sites"],
      "category": "philosophy",
      "type": "philosopher"
    },
    {
      "id": "phil_luyi",
      "label_cn": "鹿邑",
      "label_py": "Lùyì",
      "label_en": "Luyi (Laozi's birthplace)",
      "lon": 115.49, "lat": 33.86,
      "entry": "philosophy/topic_laozi",
      "layers": ["sites"],
      "category": "philosophy",
      "type": "philosopher"
    },
    {
      "id": "phil_zoucheng",
      "label_cn": "邹城",
      "label_py": "Zōuchéng",
      "label_en": "Zoucheng (Mengzi's birthplace)",
      "lon": 116.97, "lat": 35.40,
      "entry": "philosophy/topic_mengzi",
      "layers": ["sites"],
      "category": "philosophy",
      "type": "philosopher"
    },
    {
      "id": "phil_mengcheng",
      "label_cn": "蒙城",
      "label_py": "Méngchéng",
      "label_en": "Mengcheng (Zhuangzi's birthplace)",
      "lon": 116.56, "lat": 33.27,
      "entry": "philosophy/topic_zhuangzi",
      "layers": ["sites"],
      "category": "philosophy",
      "type": "philosopher"
    },

    {
      "id": "greatwall_jiayuguan",
      "label_cn": "嘉峪关",
      "label_py": "Jiāyùguān",
      "label_en": "Jiayuguan (Great Wall west)",
      "lon": 98.30, "lat": 39.80,
      "entry": "history/topic_changcheng",
      "layers": ["greatwall"],
      "category": "history",
      "type": "city"
    },
    {
      "id": "greatwall_shanhaiguan",
      "label_cn": "山海关",
      "label_py": "Shānhǎiguān",
      "label_en": "Shanhaiguan (Great Wall east)",
      "lon": 119.80, "lat": 40.00,
      "entry": "history/topic_changcheng",
      "layers": ["greatwall"],
      "category": "history",
      "type": "city"
    },

    {
      "id": "silk_changan",
      "label_cn": "长安",
      "label_py": "Cháng'ān",
      "label_en": "Chang'an (Silk Road origin)",
      "lon": 108.95, "lat": 34.27,
      "entry": "history/topic_sichouzhilu",
      "layers": ["silkroads"],
      "category": "history",
      "type": "city"
    },
    {
      "id": "silk_dunhuang",
      "label_cn": "敦煌",
      "label_py": "Dūnhuáng",
      "label_en": "Dunhuang (Silk Road junction)",
      "lon": 94.65, "lat": 40.15,
      "entry": "history/topic_sichouzhilu",
      "layers": ["silkroads"],
      "category": "history",
      "type": "city"
    },
    {
      "id": "silk_kashgar",
      "label_cn": "喀什",
      "label_py": "Kāshí",
      "label_en": "Kashgar (Tarim convergence)",
      "lon": 75.99, "lat": 39.47,
      "entry": "history/topic_sichouzhilu",
      "layers": ["silkroads"],
      "category": "history",
      "type": "city"
    },
    {
      "id": "silk_quanzhou",
      "label_cn": "泉州",
      "label_py": "Quánzhōu",
      "label_en": "Quanzhou (Maritime Silk Road)",
      "lon": 118.68, "lat": 24.87,
      "entry": "history/topic_sichouzhilu",
      "layers": ["silkroads"],
      "category": "history",
      "type": "city"
    }
  ],
  "layers": [
    {
      "id": "modern",
      "label_cn": "现代",
      "label_en": "Modern Boundaries",
      "default": true
    },
    {
      "id": "rivers",
      "label_cn": "江河",
      "label_en": "Rivers",
      "default": false
    },
    {
      "id": "dynasties",
      "label_cn": "朝代",
      "label_en": "Dynasties",
      "default": false
    },
    {
      "id": "dialects",
      "label_cn": "方言",
      "label_en": "Dialects",
      "default": false
    },
    {
      "id": "sites",
      "label_cn": "文化地点",
      "label_en": "Cultural Sites",
      "default": false
    },
    {
      "id": "greatwall",
      "label_cn": "长城",
      "label_en": "Great Wall",
      "default": false
    },
    {
      "id": "silkroads",
      "label_cn": "丝绸之路",
      "label_en": "Silk Roads",
      "default": false
    }
  ]
}
